user1;Super@234;msnemb-kiosk1;msnemb-bike1;msnemb-key1;msnemb-dp1;$GPRMC,162213.000,A,3503.2435,N,08518.6543,W,1.59,186.12,170612,,,A*7E
user2;Super@234;msnemb-kiosk2;msnemb-bike21;msnemb-key2;msnemb-dp33;$GPRMC,162213.000,A,3503.2435,N,08518.6543,W,1.59,186.12,170612,,,A*7E
user3;Super@234;msnemb-kiosk3;msnemb-bike41;msnemb-key3;msnemb-dp65;$GPRMC,162213.000,A,3503.2435,N,08518.6543,W,1.59,186.12,170612,,,A*7E
user4;Super@234;msnemb-kiosk4;msnemb-bike61;msnemb-key4;msnemb-dp97;$GPRMC,162213.000,A,3503.2435,N,08518.6543,W,1.59,186.12,170612,,,A*7E
user5;Super@234;msnemb-kiosk5;msnemb-bike81;msnemb-key5;msnemb-dp129;$GPRMC,162213.000,A,3503.2435,N,08518.6543,W,1.59,186.12,170612,,,A*7E
user6;Super@234;msnemb-kiosk6;msnemb-bike101;msnemb-key6;msnemb-dp161;$GPRMC,162213.000,A,3503.2435,N,08518.6543,W,1.59,186.12,170612,,,A*7E
user7;Super@234;msnemb-kiosk7;msnemb-bike121;msnemb-key7;msnemb-dp193;$GPRMC,162213.000,A,3503.2435,N,08518.6543,W,1.59,186.12,170612,,,A*7E
user8;Super@234;msnemb-kiosk8;msnemb-bike141;msnemb-key8;msnemb-dp225;$GPRMC,162213.000,A,3503.2435,N,08518.6543,W,1.59,186.12,170612,,,A*7E
user9;Super@234;msnemb-kiosk9;msnemb-bike161;msnemb-key9;msnemb-dp257;$GPRMC,162213.000,A,3503.2435,N,08518.6543,W,1.59,186.12,170612,,,A*7E
user10;Super@234;msnemb-kiosk10;msnemb-bike181;msnemb-key10;msnemb-dp289;$GPRMC,162213.000,A,3503.2435,N,08518.6543,W,1.59,186.12,170612,,,A*7E
user11;Super@234;msnemb-kiosk11;msnemb-bike201;msnemb-key11;msnemb-dp321;$GPRMC,162213.000,A,3503.2435,N,08518.6543,W,1.59,186.12,170612,,,A*7E
user12;Super@234;msnemb-kiosk12;msnemb-bike221;msnemb-key12;msnemb-dp353;$GPRMC,162213.000,A,3503.2435,N,08518.6543,W,1.59,186.12,170612,,,A*7E
user13;Super@234;msnemb-kiosk13;msnemb-bike241;msnemb-key13;msnemb-dp385;$GPRMC,162213.000,A,3503.2435,N,08518.6543,W,1.59,186.12,170612,,,A*7E
user14;Super@234;msnemb-kiosk14;msnemb-bike261;msnemb-key14;msnemb-dp417;$GPRMC,162213.000,A,3503.2435,N,08518.6543,W,1.59,186.12,170612,,,A*7E
user15;Super@234;msnemb-kiosk15;msnemb-bike281;msnemb-key15;msnemb-dp449;$GPRMC,162213.000,A,3503.2435,N,08518.6543,W,1.59,186.12,170612,,,A*7E
user16;Super@234;msnemb-kiosk16;msnemb-bike301;msnemb-key16;msnemb-dp481;$GPRMC,162213.000,A,3503.2435,N,08518.6543,W,1.59,186.12,170612,,,A*7E
user17;Super@234;msnemb-kiosk17;msnemb-bike321;msnemb-key17;msnemb-dp513;$GPRMC,162213.000,A,3503.2435,N,08518.6543,W,1.59,186.12,170612,,,A*7E
user18;Super@234;msnemb-kiosk18;msnemb-bike341;msnemb-key18;msnemb-dp545;$GPRMC,162213.000,A,3503.2435,N,08518.6543,W,1.59,186.12,170612,,,A*7E
user19;Super@234;msnemb-kiosk19;msnemb-bike361;msnemb-key19;msnemb-dp577;$GPRMC,162213.000,A,3503.2435,N,08518.6543,W,1.59,186.12,170612,,,A*7E
user20;Super@234;msnemb-kiosk20;msnemb-bike381;msnemb-key20;msnemb-dp609;$GPRMC,162213.000,A,3503.2435,N,08518.6543,W,1.59,186.12,170612,,,A*7E
user21;Super@234;msnemb-kiosk21;msnemb-bike401;msnemb-key21;msnemb-dp641;$GPRMC,162213.000,A,3503.2435,N,08518.6543,W,1.59,186.12,170612,,,A*7E
user22;Super@234;msnemb-kiosk22;msnemb-bike421;msnemb-key22;msnemb-dp673;$GPRMC,162213.000,A,3503.2435,N,08518.6543,W,1.59,186.12,170612,,,A*7E
user23;Super@234;msnemb-kiosk23;msnemb-bike441;msnemb-key23;msnemb-dp705;$GPRMC,162213.000,A,3503.2435,N,08518.6543,W,1.59,186.12,170612,,,A*7E
user24;Super@234;msnemb-kiosk24;msnemb-bike461;msnemb-key24;msnemb-dp737;$GPRMC,162213.000,A,3503.2435,N,08518.6543,W,1.59,186.12,170612,,,A*7E
user25;Super@234;msnemb-kiosk25;msnemb-bike481;msnemb-key25;msnemb-dp769;$GPRMC,162213.000,A,3503.2435,N,08518.6543,W,1.59,186.12,170612,,,A*7E
user26;Super@234;msnemb-kiosk26;msnemb-bike501;msnemb-key26;msnemb-dp801;$GPRMC,162213.000,A,3503.2435,N,08518.6543,W,1.59,186.12,170612,,,A*7E
user27;Super@234;msnemb-kiosk27;msnemb-bike521;msnemb-key27;msnemb-dp833;$GPRMC,162213.000,A,3503.2435,N,08518.6543,W,1.59,186.12,170612,,,A*7E
user28;Super@234;msnemb-kiosk28;msnemb-bike541;msnemb-key28;msnemb-dp865;$GPRMC,162213.000,A,3503.2435,N,08518.6543,W,1.59,186.12,170612,,,A*7E
user29;Super@234;msnemb-kiosk29;msnemb-bike561;msnemb-key29;msnemb-dp897;$GPRMC,162213.000,A,3503.2435,N,08518.6543,W,1.59,186.12,170612,,,A*7E
user30;Super@234;msnemb-kiosk30;msnemb-bike581;msnemb-key30;msnemb-dp929;$GPRMC,162213.000,A,3503.2435,N,08518.6543,W,1.59,186.12,170612,,,A*7E
user31;Super@234;msnemb-kiosk31;msnemb-bike601;msnemb-key31;msnemb-dp961;$GPRMC,162213.000,A,3503.2435,N,08518.6543,W,1.59,186.12,170612,,,A*7E
user32;Super@234;msnemb-kiosk32;msnemb-bike621;msnemb-key32;msnemb-dp993;$GPRMC,162213.000,A,3503.2435,N,08518.6543,W,1.59,186.12,170612,,,A*7E
user33;Super@234;msnemb-kiosk33;msnemb-bike641;msnemb-key33;msnemb-dp1025;$GPRMC,162213.000,A,3503.2435,N,08518.6543,W,1.59,186.12,170612,,,A*7E
user34;Super@234;msnemb-kiosk34;msnemb-bike661;msnemb-key34;msnemb-dp1057;$GPRMC,162213.000,A,3503.2435,N,08518.6543,W,1.59,186.12,170612,,,A*7E
user35;Super@234;msnemb-kiosk35;msnemb-bike681;msnemb-key35;msnemb-dp1089;$GPRMC,162213.000,A,3503.2435,N,08518.6543,W,1.59,186.12,170612,,,A*7E
user36;Super@234;msnemb-kiosk36;msnemb-bike701;msnemb-key36;msnemb-dp1121;$GPRMC,162213.000,A,3503.2435,N,08518.6543,W,1.59,186.12,170612,,,A*7E
user37;Super@234;msnemb-kiosk37;msnemb-bike721;msnemb-key37;msnemb-dp1153;$GPRMC,162213.000,A,3503.2435,N,08518.6543,W,1.59,186.12,170612,,,A*7E
user38;Super@234;msnemb-kiosk38;msnemb-bike741;msnemb-key38;msnemb-dp1185;$GPRMC,162213.000,A,3503.2435,N,08518.6543,W,1.59,186.12,170612,,,A*7E
user39;Super@234;msnemb-kiosk39;msnemb-bike761;msnemb-key39;msnemb-dp1217;$GPRMC,162213.000,A,3503.2435,N,08518.6543,W,1.59,186.12,170612,,,A*7E
user40;Super@234;msnemb-kiosk40;msnemb-bike781;msnemb-key40;msnemb-dp1249;$GPRMC,162213.000,A,3503.2435,N,08518.6543,W,1.59,186.12,170612,,,A*7E
user41;Super@234;msnemb-kiosk41;msnemb-bike801;msnemb-key41;msnemb-dp1281;$GPRMC,162213.000,A,3503.2435,N,08518.6543,W,1.59,186.12,170612,,,A*7E
user42;Super@234;msnemb-kiosk42;msnemb-bike821;msnemb-key42;msnemb-dp1313;$GPRMC,162213.000,A,3503.2435,N,08518.6543,W,1.59,186.12,170612,,,A*7E
user43;Super@234;msnemb-kiosk43;msnemb-bike841;msnemb-key43;msnemb-dp1345;$GPRMC,162213.000,A,3503.2435,N,08518.6543,W,1.59,186.12,170612,,,A*7E
user44;Super@234;msnemb-kiosk44;msnemb-bike861;msnemb-key44;msnemb-dp1377;$GPRMC,162213.000,A,3503.2435,N,08518.6543,W,1.59,186.12,170612,,,A*7E
user45;Super@234;msnemb-kiosk45;msnemb-bike881;msnemb-key45;msnemb-dp1409;$GPRMC,162213.000,A,3503.2435,N,08518.6543,W,1.59,186.12,170612,,,A*7E
user46;Super@234;msnemb-kiosk46;msnemb-bike901;msnemb-key46;msnemb-dp1441;$GPRMC,162213.000,A,3503.2435,N,08518.6543,W,1.59,186.12,170612,,,A*7E
user47;Super@234;msnemb-kiosk47;msnemb-bike921;msnemb-key47;msnemb-dp1473;$GPRMC,162213.000,A,3503.2435,N,08518.6543,W,1.59,186.12,170612,,,A*7E
user48;Super@234;msnemb-kiosk48;msnemb-bike941;msnemb-key48;msnemb-dp1505;$GPRMC,162213.000,A,3503.2435,N,08518.6543,W,1.59,186.12,170612,,,A*7E
user49;Super@234;msnemb-kiosk49;msnemb-bike961;msnemb-key49;msnemb-dp1537;$GPRMC,162213.000,A,3503.2435,N,08518.6543,W,1.59,186.12,170612,,,A*7E
user50;Super@234;msnemb-kiosk50;msnemb-bike981;msnemb-key50;msnemb-dp1569;$GPRMC,162213.000,A,3503.2435,N,08518.6543,W,1.59,186.12,170612,,,A*7E
user51;Super@234;msnemb-kiosk51;msnemb-bike1001;msnemb-key51;msnemb-dp1601;$GPRMC,162213.000,A,3503.2435,N,08518.6543,W,1.59,186.12,170612,,,A*7E
user52;Super@234;msnemb-kiosk52;msnemb-bike1021;msnemb-key52;msnemb-dp1633;$GPRMC,162213.000,A,3503.2435,N,08518.6543,W,1.59,186.12,170612,,,A*7E
user53;Super@234;msnemb-kiosk53;msnemb-bike1041;msnemb-key53;msnemb-dp1665;$GPRMC,162213.000,A,3503.2435,N,08518.6543,W,1.59,186.12,170612,,,A*7E
user54;Super@234;msnemb-kiosk54;msnemb-bike1061;msnemb-key54;msnemb-dp1697;$GPRMC,162213.000,A,3503.2435,N,08518.6543,W,1.59,186.12,170612,,,A*7E
user55;Super@234;msnemb-kiosk55;msnemb-bike1081;msnemb-key55;msnemb-dp1729;$GPRMC,162213.000,A,3503.2435,N,08518.6543,W,1.59,186.12,170612,,,A*7E
user56;Super@234;msnemb-kiosk56;msnemb-bike1101;msnemb-key56;msnemb-dp1761;$GPRMC,162213.000,A,3503.2435,N,08518.6543,W,1.59,186.12,170612,,,A*7E
user57;Super@234;msnemb-kiosk57;msnemb-bike1121;msnemb-key57;msnemb-dp1793;$GPRMC,162213.000,A,3503.2435,N,08518.6543,W,1.59,186.12,170612,,,A*7E
user58;Super@234;msnemb-kiosk58;msnemb-bike1141;msnemb-key58;msnemb-dp1825;$GPRMC,162213.000,A,3503.2435,N,08518.6543,W,1.59,186.12,170612,,,A*7E
user59;Super@234;msnemb-kiosk59;msnemb-bike1161;msnemb-key59;msnemb-dp1857;$GPRMC,162213.000,A,3503.2435,N,08518.6543,W,1.59,186.12,170612,,,A*7E
user60;Super@234;msnemb-kiosk60;msnemb-bike1181;msnemb-key60;msnemb-dp1889;$GPRMC,162213.000,A,3503.2435,N,08518.6543,W,1.59,186.12,170612,,,A*7E
user61;Super@234;msnemb-kiosk61;msnemb-bike1201;msnemb-key61;msnemb-dp1921;$GPRMC,162213.000,A,3503.2435,N,08518.6543,W,1.59,186.12,170612,,,A*7E
user62;Super@234;msnemb-kiosk62;msnemb-bike1221;msnemb-key62;msnemb-dp1953;$GPRMC,162213.000,A,3503.2435,N,08518.6543,W,1.59,186.12,170612,,,A*7E
user63;Super@234;msnemb-kiosk63;msnemb-bike1241;msnemb-key63;msnemb-dp1985;$GPRMC,162213.000,A,3503.2435,N,08518.6543,W,1.59,186.12,170612,,,A*7E
user64;Super@234;msnemb-kiosk64;msnemb-bike1261;msnemb-key64;msnemb-dp2017;$GPRMC,162213.000,A,3503.2435,N,08518.6543,W,1.59,186.12,170612,,,A*7E
user65;Super@234;msnemb-kiosk65;msnemb-bike1281;msnemb-key65;msnemb-dp2049;$GPRMC,162213.000,A,3503.2435,N,08518.6543,W,1.59,186.12,170612,,,A*7E
user66;Super@234;msnemb-kiosk66;msnemb-bike1301;msnemb-key66;msnemb-dp2081;$GPRMC,162213.000,A,3503.2435,N,08518.6543,W,1.59,186.12,170612,,,A*7E
user67;Super@234;msnemb-kiosk67;msnemb-bike1321;msnemb-key67;msnemb-dp2113;$GPRMC,162213.000,A,3503.2435,N,08518.6543,W,1.59,186.12,170612,,,A*7E
user68;Super@234;msnemb-kiosk68;msnemb-bike1341;msnemb-key68;msnemb-dp2145;$GPRMC,162213.000,A,3503.2435,N,08518.6543,W,1.59,186.12,170612,,,A*7E
user69;Super@234;msnemb-kiosk69;msnemb-bike1361;msnemb-key69;msnemb-dp2177;$GPRMC,162213.000,A,3503.2435,N,08518.6543,W,1.59,186.12,170612,,,A*7E
user70;Super@234;msnemb-kiosk70;msnemb-bike1381;msnemb-key70;msnemb-dp2209;$GPRMC,162213.000,A,3503.2435,N,08518.6543,W,1.59,186.12,170612,,,A*7E
user71;Super@234;msnemb-kiosk71;msnemb-bike1401;msnemb-key71;msnemb-dp2241;$GPRMC,162213.000,A,3503.2435,N,08518.6543,W,1.59,186.12,170612,,,A*7E
user72;Super@234;msnemb-kiosk72;msnemb-bike1421;msnemb-key72;msnemb-dp2273;$GPRMC,162213.000,A,3503.2435,N,08518.6543,W,1.59,186.12,170612,,,A*7E
user73;Super@234;msnemb-kiosk73;msnemb-bike1441;msnemb-key73;msnemb-dp2305;$GPRMC,162213.000,A,3503.2435,N,08518.6543,W,1.59,186.12,170612,,,A*7E
user74;Super@234;msnemb-kiosk74;msnemb-bike1461;msnemb-key74;msnemb-dp2337;$GPRMC,162213.000,A,3503.2435,N,08518.6543,W,1.59,186.12,170612,,,A*7E
user75;Super@234;msnemb-kiosk75;msnemb-bike1481;msnemb-key75;msnemb-dp2369;$GPRMC,162213.000,A,3503.2435,N,08518.6543,W,1.59,186.12,170612,,,A*7E
user76;Super@234;msnemb-kiosk76;msnemb-bike1501;msnemb-key76;msnemb-dp2401;$GPRMC,162213.000,A,3503.2435,N,08518.6543,W,1.59,186.12,170612,,,A*7E
user77;Super@234;msnemb-kiosk77;msnemb-bike1521;msnemb-key77;msnemb-dp2433;$GPRMC,162213.000,A,3503.2435,N,08518.6543,W,1.59,186.12,170612,,,A*7E
user78;Super@234;msnemb-kiosk78;msnemb-bike1541;msnemb-key78;msnemb-dp2465;$GPRMC,162213.000,A,3503.2435,N,08518.6543,W,1.59,186.12,170612,,,A*7E
user79;Super@234;msnemb-kiosk79;msnemb-bike1561;msnemb-key79;msnemb-dp2497;$GPRMC,162213.000,A,3503.2435,N,08518.6543,W,1.59,186.12,170612,,,A*7E
user80;Super@234;msnemb-kiosk80;msnemb-bike1581;msnemb-key80;msnemb-dp2529;$GPRMC,162213.000,A,3503.2435,N,08518.6543,W,1.59,186.12,170612,,,A*7E
user81;Super@234;msnemb-kiosk81;msnemb-bike1601;msnemb-key81;msnemb-dp2561;$GPRMC,162213.000,A,3503.2435,N,08518.6543,W,1.59,186.12,170612,,,A*7E
user82;Super@234;msnemb-kiosk82;msnemb-bike1621;msnemb-key82;msnemb-dp2593;$GPRMC,162213.000,A,3503.2435,N,08518.6543,W,1.59,186.12,170612,,,A*7E
user83;Super@234;msnemb-kiosk83;msnemb-bike1641;msnemb-key83;msnemb-dp2625;$GPRMC,162213.000,A,3503.2435,N,08518.6543,W,1.59,186.12,170612,,,A*7E
user84;Super@234;msnemb-kiosk84;msnemb-bike1661;msnemb-key84;msnemb-dp2657;$GPRMC,162213.000,A,3503.2435,N,08518.6543,W,1.59,186.12,170612,,,A*7E
user85;Super@234;msnemb-kiosk85;msnemb-bike1681;msnemb-key85;msnemb-dp2689;$GPRMC,162213.000,A,3503.2435,N,08518.6543,W,1.59,186.12,170612,,,A*7E
user86;Super@234;msnemb-kiosk86;msnemb-bike1701;msnemb-key86;msnemb-dp2721;$GPRMC,162213.000,A,3503.2435,N,08518.6543,W,1.59,186.12,170612,,,A*7E
user87;Super@234;msnemb-kiosk87;msnemb-bike1721;msnemb-key87;msnemb-dp2753;$GPRMC,162213.000,A,3503.2435,N,08518.6543,W,1.59,186.12,170612,,,A*7E
user88;Super@234;msnemb-kiosk88;msnemb-bike1741;msnemb-key88;msnemb-dp2785;$GPRMC,162213.000,A,3503.2435,N,08518.6543,W,1.59,186.12,170612,,,A*7E
user89;Super@234;msnemb-kiosk89;msnemb-bike1761;msnemb-key89;msnemb-dp2817;$GPRMC,162213.000,A,3503.2435,N,08518.6543,W,1.59,186.12,170612,,,A*7E
user90;Super@234;msnemb-kiosk90;msnemb-bike1781;msnemb-key90;msnemb-dp2849;$GPRMC,162213.000,A,3503.2435,N,08518.6543,W,1.59,186.12,170612,,,A*7E
user91;Super@234;msnemb-kiosk91;msnemb-bike1801;msnemb-key91;msnemb-dp2881;$GPRMC,162213.000,A,3503.2435,N,08518.6543,W,1.59,186.12,170612,,,A*7E
user92;Super@234;msnemb-kiosk92;msnemb-bike1821;msnemb-key92;msnemb-dp2913;$GPRMC,162213.000,A,3503.2435,N,08518.6543,W,1.59,186.12,170612,,,A*7E
user93;Super@234;msnemb-kiosk93;msnemb-bike1841;msnemb-key93;msnemb-dp2945;$GPRMC,162213.000,A,3503.2435,N,08518.6543,W,1.59,186.12,170612,,,A*7E
user94;Super@234;msnemb-kiosk94;msnemb-bike1861;msnemb-key94;msnemb-dp2977;$GPRMC,162213.000,A,3503.2435,N,08518.6543,W,1.59,186.12,170612,,,A*7E
user95;Super@234;msnemb-kiosk95;msnemb-bike1881;msnemb-key95;msnemb-dp3009;$GPRMC,162213.000,A,3503.2435,N,08518.6543,W,1.59,186.12,170612,,,A*7E
user96;Super@234;msnemb-kiosk96;msnemb-bike1901;msnemb-key96;msnemb-dp3041;$GPRMC,162213.000,A,3503.2435,N,08518.6543,W,1.59,186.12,170612,,,A*7E
user97;Super@234;msnemb-kiosk97;msnemb-bike1921;msnemb-key97;msnemb-dp3073;$GPRMC,162213.000,A,3503.2435,N,08518.6543,W,1.59,186.12,170612,,,A*7E
user98;Super@234;msnemb-kiosk98;msnemb-bike1941;msnemb-key98;msnemb-dp3105;$GPRMC,162213.000,A,3503.2435,N,08518.6543,W,1.59,186.12,170612,,,A*7E
user99;Super@234;msnemb-kiosk99;msnemb-bike1961;msnemb-key99;msnemb-dp3137;$GPRMC,162213.000,A,3503.2435,N,08518.6543,W,1.59,186.12,170612,,,A*7E
user100;Super@234;msnemb-kiosk100;msnemb-bike1981;msnemb-key100;msnemb-dp3169;$GPRMC,162213.000,A,3503.2435,N,08518.6543,W,1.59,186.12,170612,,,A*7E
user101;Super@234;msnemb-kiosk101;msnemb-bike2001;msnemb-key101;msnemb-dp3201;$GPRMC,162213.000,A,3503.2435,N,08518.6543,W,1.59,186.12,170612,,,A*7E
user102;Super@234;msnemb-kiosk102;msnemb-bike2021;msnemb-key102;msnemb-dp3233;$GPRMC,162213.000,A,3503.2435,N,08518.6543,W,1.59,186.12,170612,,,A*7E
user103;Super@234;msnemb-kiosk103;msnemb-bike2041;msnemb-key103;msnemb-dp3265;$GPRMC,162213.000,A,3503.2435,N,08518.6543,W,1.59,186.12,170612,,,A*7E
user104;Super@234;msnemb-kiosk104;msnemb-bike2061;msnemb-key104;msnemb-dp3297;$GPRMC,162213.000,A,3503.2435,N,08518.6543,W,1.59,186.12,170612,,,A*7E
user105;Super@234;msnemb-kiosk105;msnemb-bike2081;msnemb-key105;msnemb-dp3329;$GPRMC,162213.000,A,3503.2435,N,08518.6543,W,1.59,186.12,170612,,,A*7E
user106;Super@234;msnemb-kiosk106;msnemb-bike2101;msnemb-key106;msnemb-dp3361;$GPRMC,162213.000,A,3503.2435,N,08518.6543,W,1.59,186.12,170612,,,A*7E
user107;Super@234;msnemb-kiosk107;msnemb-bike2121;msnemb-key107;msnemb-dp3393;$GPRMC,162213.000,A,3503.2435,N,08518.6543,W,1.59,186.12,170612,,,A*7E
user108;Super@234;msnemb-kiosk108;msnemb-bike2141;msnemb-key108;msnemb-dp3425;$GPRMC,162213.000,A,3503.2435,N,08518.6543,W,1.59,186.12,170612,,,A*7E
user109;Super@234;msnemb-kiosk109;msnemb-bike2161;msnemb-key109;msnemb-dp3457;$GPRMC,162213.000,A,3503.2435,N,08518.6543,W,1.59,186.12,170612,,,A*7E
user110;Super@234;msnemb-kiosk110;msnemb-bike2181;msnemb-key110;msnemb-dp3489;$GPRMC,162213.000,A,3503.2435,N,08518.6543,W,1.59,186.12,170612,,,A*7E
user111;Super@234;msnemb-kiosk111;msnemb-bike2201;msnemb-key111;msnemb-dp3521;$GPRMC,162213.000,A,3503.2435,N,08518.6543,W,1.59,186.12,170612,,,A*7E
user112;Super@234;msnemb-kiosk112;msnemb-bike2221;msnemb-key112;msnemb-dp3553;$GPRMC,162213.000,A,3503.2435,N,08518.6543,W,1.59,186.12,170612,,,A*7E
user113;Super@234;msnemb-kiosk113;msnemb-bike2241;msnemb-key113;msnemb-dp3585;$GPRMC,162213.000,A,3503.2435,N,08518.6543,W,1.59,186.12,170612,,,A*7E
user114;Super@234;msnemb-kiosk114;msnemb-bike2261;msnemb-key114;msnemb-dp3617;$GPRMC,162213.000,A,3503.2435,N,08518.6543,W,1.59,186.12,170612,,,A*7E
user115;Super@234;msnemb-kiosk115;msnemb-bike2281;msnemb-key115;msnemb-dp3649;$GPRMC,162213.000,A,3503.2435,N,08518.6543,W,1.59,186.12,170612,,,A*7E
user116;Super@234;msnemb-kiosk116;msnemb-bike2301;msnemb-key116;msnemb-dp3681;$GPRMC,162213.000,A,3503.2435,N,08518.6543,W,1.59,186.12,170612,,,A*7E
user117;Super@234;msnemb-kiosk117;msnemb-bike2321;msnemb-key117;msnemb-dp3713;$GPRMC,162213.000,A,3503.2435,N,08518.6543,W,1.59,186.12,170612,,,A*7E
user118;Super@234;msnemb-kiosk118;msnemb-bike2341;msnemb-key118;msnemb-dp3745;$GPRMC,162213.000,A,3503.2435,N,08518.6543,W,1.59,186.12,170612,,,A*7E
user119;Super@234;msnemb-kiosk119;msnemb-bike2361;msnemb-key119;msnemb-dp3777;$GPRMC,162213.000,A,3503.2435,N,08518.6543,W,1.59,186.12,170612,,,A*7E
user120;Super@234;msnemb-kiosk120;msnemb-bike2381;msnemb-key120;msnemb-dp3809;$GPRMC,162213.000,A,3503.2435,N,08518.6543,W,1.59,186.12,170612,,,A*7E
user121;Super@234;msnemb-kiosk121;msnemb-bike2401;msnemb-key121;msnemb-dp3841;$GPRMC,162213.000,A,3503.2435,N,08518.6543,W,1.59,186.12,170612,,,A*7E
user122;Super@234;msnemb-kiosk122;msnemb-bike2421;msnemb-key122;msnemb-dp3873;$GPRMC,162213.000,A,3503.2435,N,08518.6543,W,1.59,186.12,170612,,,A*7E
user123;Super@234;msnemb-kiosk123;msnemb-bike2441;msnemb-key123;msnemb-dp3905;$GPRMC,162213.000,A,3503.2435,N,08518.6543,W,1.59,186.12,170612,,,A*7E
user124;Super@234;msnemb-kiosk124;msnemb-bike2461;msnemb-key124;msnemb-dp3937;$GPRMC,162213.000,A,3503.2435,N,08518.6543,W,1.59,186.12,170612,,,A*7E
user125;Super@234;msnemb-kiosk125;msnemb-bike2481;msnemb-key125;msnemb-dp3969;$GPRMC,162213.000,A,3503.2435,N,08518.6543,W,1.59,186.12,170612,,,A*7E
user126;Super@234;msnemb-kiosk126;msnemb-bike2501;msnemb-key126;msnemb-dp4001;$GPRMC,162213.000,A,3503.2435,N,08518.6543,W,1.59,186.12,170612,,,A*7E
user127;Super@234;msnemb-kiosk127;msnemb-bike2521;msnemb-key127;msnemb-dp4033;$GPRMC,162213.000,A,3503.2435,N,08518.6543,W,1.59,186.12,170612,,,A*7E
user128;Super@234;msnemb-kiosk128;msnemb-bike2541;msnemb-key128;msnemb-dp4065;$GPRMC,162213.000,A,3503.2435,N,08518.6543,W,1.59,186.12,170612,,,A*7E
user129;Super@234;msnemb-kiosk129;msnemb-bike2561;msnemb-key129;msnemb-dp4097;$GPRMC,162213.000,A,3503.2435,N,08518.6543,W,1.59,186.12,170612,,,A*7E
user130;Super@234;msnemb-kiosk130;msnemb-bike2581;msnemb-key130;msnemb-dp4129;$GPRMC,162213.000,A,3503.2435,N,08518.6543,W,1.59,186.12,170612,,,A*7E
user131;Super@234;msnemb-kiosk131;msnemb-bike2601;msnemb-key131;msnemb-dp4161;$GPRMC,162213.000,A,3503.2435,N,08518.6543,W,1.59,186.12,170612,,,A*7E
user132;Super@234;msnemb-kiosk132;msnemb-bike2621;msnemb-key132;msnemb-dp4193;$GPRMC,162213.000,A,3503.2435,N,08518.6543,W,1.59,186.12,170612,,,A*7E
user133;Super@234;msnemb-kiosk133;msnemb-bike2641;msnemb-key133;msnemb-dp4225;$GPRMC,162213.000,A,3503.2435,N,08518.6543,W,1.59,186.12,170612,,,A*7E
user134;Super@234;msnemb-kiosk134;msnemb-bike2661;msnemb-key134;msnemb-dp4257;$GPRMC,162213.000,A,3503.2435,N,08518.6543,W,1.59,186.12,170612,,,A*7E
user135;Super@234;msnemb-kiosk135;msnemb-bike2681;msnemb-key135;msnemb-dp4289;$GPRMC,162213.000,A,3503.2435,N,08518.6543,W,1.59,186.12,170612,,,A*7E
user136;Super@234;msnemb-kiosk136;msnemb-bike2701;msnemb-key136;msnemb-dp4321;$GPRMC,162213.000,A,3503.2435,N,08518.6543,W,1.59,186.12,170612,,,A*7E
user137;Super@234;msnemb-kiosk137;msnemb-bike2721;msnemb-key137;msnemb-dp4353;$GPRMC,162213.000,A,3503.2435,N,08518.6543,W,1.59,186.12,170612,,,A*7E
user138;Super@234;msnemb-kiosk138;msnemb-bike2741;msnemb-key138;msnemb-dp4385;$GPRMC,162213.000,A,3503.2435,N,08518.6543,W,1.59,186.12,170612,,,A*7E
user139;Super@234;msnemb-kiosk139;msnemb-bike2761;msnemb-key139;msnemb-dp4417;$GPRMC,162213.000,A,3503.2435,N,08518.6543,W,1.59,186.12,170612,,,A*7E
user140;Super@234;msnemb-kiosk140;msnemb-bike2781;msnemb-key140;msnemb-dp4449;$GPRMC,162213.000,A,3503.2435,N,08518.6543,W,1.59,186.12,170612,,,A*7E
user141;Super@234;msnemb-kiosk141;msnemb-bike2801;msnemb-key141;msnemb-dp4481;$GPRMC,162213.000,A,3503.2435,N,08518.6543,W,1.59,186.12,170612,,,A*7E
user142;Super@234;msnemb-kiosk142;msnemb-bike2821;msnemb-key142;msnemb-dp4513;$GPRMC,162213.000,A,3503.2435,N,08518.6543,W,1.59,186.12,170612,,,A*7E
user143;Super@234;msnemb-kiosk143;msnemb-bike2841;msnemb-key143;msnemb-dp4545;$GPRMC,162213.000,A,3503.2435,N,08518.6543,W,1.59,186.12,170612,,,A*7E
user144;Super@234;msnemb-kiosk144;msnemb-bike2861;msnemb-key144;msnemb-dp4577;$GPRMC,162213.000,A,3503.2435,N,08518.6543,W,1.59,186.12,170612,,,A*7E
user145;Super@234;msnemb-kiosk145;msnemb-bike2881;msnemb-key145;msnemb-dp4609;$GPRMC,162213.000,A,3503.2435,N,08518.6543,W,1.59,186.12,170612,,,A*7E
user146;Super@234;msnemb-kiosk146;msnemb-bike2901;msnemb-key146;msnemb-dp4641;$GPRMC,162213.000,A,3503.2435,N,08518.6543,W,1.59,186.12,170612,,,A*7E
user147;Super@234;msnemb-kiosk147;msnemb-bike2921;msnemb-key147;msnemb-dp4673;$GPRMC,162213.000,A,3503.2435,N,08518.6543,W,1.59,186.12,170612,,,A*7E
user148;Super@234;msnemb-kiosk148;msnemb-bike2941;msnemb-key148;msnemb-dp4705;$GPRMC,162213.000,A,3503.2435,N,08518.6543,W,1.59,186.12,170612,,,A*7E
user149;Super@234;msnemb-kiosk149;msnemb-bike2961;msnemb-key149;msnemb-dp4737;$GPRMC,162213.000,A,3503.2435,N,08518.6543,W,1.59,186.12,170612,,,A*7E
user150;Super@234;msnemb-kiosk150;msnemb-bike2981;msnemb-key150;msnemb-dp4769;$GPRMC,162213.000,A,3503.2435,N,08518.6543,W,1.59,186.12,170612,,,A*7E
user151;Super@234;msnemb-kiosk151;msnemb-bike3001;msnemb-key151;msnemb-dp4801;$GPRMC,162213.000,A,3503.2435,N,08518.6543,W,1.59,186.12,170612,,,A*7E
user152;Super@234;msnemb-kiosk152;msnemb-bike3021;msnemb-key152;msnemb-dp4833;$GPRMC,162213.000,A,3503.2435,N,08518.6543,W,1.59,186.12,170612,,,A*7E
user153;Super@234;msnemb-kiosk153;msnemb-bike3041;msnemb-key153;msnemb-dp4865;$GPRMC,162213.000,A,3503.2435,N,08518.6543,W,1.59,186.12,170612,,,A*7E
user154;Super@234;msnemb-kiosk154;msnemb-bike3061;msnemb-key154;msnemb-dp4897;$GPRMC,162213.000,A,3503.2435,N,08518.6543,W,1.59,186.12,170612,,,A*7E
user155;Super@234;msnemb-kiosk155;msnemb-bike3081;msnemb-key155;msnemb-dp4929;$GPRMC,162213.000,A,3503.2435,N,08518.6543,W,1.59,186.12,170612,,,A*7E
user156;Super@234;msnemb-kiosk156;msnemb-bike3101;msnemb-key156;msnemb-dp4961;$GPRMC,162213.000,A,3503.2435,N,08518.6543,W,1.59,186.12,170612,,,A*7E
user157;Super@234;msnemb-kiosk157;msnemb-bike3121;msnemb-key157;msnemb-dp4993;$GPRMC,162213.000,A,3503.2435,N,08518.6543,W,1.59,186.12,170612,,,A*7E
user158;Super@234;msnemb-kiosk158;msnemb-bike3141;msnemb-key158;msnemb-dp5025;$GPRMC,162213.000,A,3503.2435,N,08518.6543,W,1.59,186.12,170612,,,A*7E
user159;Super@234;msnemb-kiosk159;msnemb-bike3161;msnemb-key159;msnemb-dp5057;$GPRMC,162213.000,A,3503.2435,N,08518.6543,W,1.59,186.12,170612,,,A*7E
user160;Super@234;msnemb-kiosk160;msnemb-bike3181;msnemb-key160;msnemb-dp5089;$GPRMC,162213.000,A,3503.2435,N,08518.6543,W,1.59,186.12,170612,,,A*7E
user161;Super@234;msnemb-kiosk161;msnemb-bike3201;msnemb-key161;msnemb-dp5121;$GPRMC,162213.000,A,3503.2435,N,08518.6543,W,1.59,186.12,170612,,,A*7E
user162;Super@234;msnemb-kiosk162;msnemb-bike3221;msnemb-key162;msnemb-dp5153;$GPRMC,162213.000,A,3503.2435,N,08518.6543,W,1.59,186.12,170612,,,A*7E
user163;Super@234;msnemb-kiosk163;msnemb-bike3241;msnemb-key163;msnemb-dp5185;$GPRMC,162213.000,A,3503.2435,N,08518.6543,W,1.59,186.12,170612,,,A*7E
user164;Super@234;msnemb-kiosk164;msnemb-bike3261;msnemb-key164;msnemb-dp5217;$GPRMC,162213.000,A,3503.2435,N,08518.6543,W,1.59,186.12,170612,,,A*7E
user165;Super@234;msnemb-kiosk165;msnemb-bike3281;msnemb-key165;msnemb-dp5249;$GPRMC,162213.000,A,3503.2435,N,08518.6543,W,1.59,186.12,170612,,,A*7E
user166;Super@234;msnemb-kiosk166;msnemb-bike3301;msnemb-key166;msnemb-dp5281;$GPRMC,162213.000,A,3503.2435,N,08518.6543,W,1.59,186.12,170612,,,A*7E
user167;Super@234;msnemb-kiosk167;msnemb-bike3321;msnemb-key167;msnemb-dp5313;$GPRMC,162213.000,A,3503.2435,N,08518.6543,W,1.59,186.12,170612,,,A*7E
user168;Super@234;msnemb-kiosk168;msnemb-bike3341;msnemb-key168;msnemb-dp5345;$GPRMC,162213.000,A,3503.2435,N,08518.6543,W,1.59,186.12,170612,,,A*7E
user169;Super@234;msnemb-kiosk169;msnemb-bike3361;msnemb-key169;msnemb-dp5377;$GPRMC,162213.000,A,3503.2435,N,08518.6543,W,1.59,186.12,170612,,,A*7E
user170;Super@234;msnemb-kiosk170;msnemb-bike3381;msnemb-key170;msnemb-dp5409;$GPRMC,162213.000,A,3503.2435,N,08518.6543,W,1.59,186.12,170612,,,A*7E
user171;Super@234;msnemb-kiosk171;msnemb-bike3401;msnemb-key171;msnemb-dp5441;$GPRMC,162213.000,A,3503.2435,N,08518.6543,W,1.59,186.12,170612,,,A*7E
user172;Super@234;msnemb-kiosk172;msnemb-bike3421;msnemb-key172;msnemb-dp5473;$GPRMC,162213.000,A,3503.2435,N,08518.6543,W,1.59,186.12,170612,,,A*7E
user173;Super@234;msnemb-kiosk173;msnemb-bike3441;msnemb-key173;msnemb-dp5505;$GPRMC,162213.000,A,3503.2435,N,08518.6543,W,1.59,186.12,170612,,,A*7E
user174;Super@234;msnemb-kiosk174;msnemb-bike3461;msnemb-key174;msnemb-dp5537;$GPRMC,162213.000,A,3503.2435,N,08518.6543,W,1.59,186.12,170612,,,A*7E
user175;Super@234;msnemb-kiosk175;msnemb-bike3481;msnemb-key175;msnemb-dp5569;$GPRMC,162213.000,A,3503.2435,N,08518.6543,W,1.59,186.12,170612,,,A*7E
user176;Super@234;msnemb-kiosk176;msnemb-bike3501;msnemb-key176;msnemb-dp5601;$GPRMC,162213.000,A,3503.2435,N,08518.6543,W,1.59,186.12,170612,,,A*7E
user177;Super@234;msnemb-kiosk177;msnemb-bike3521;msnemb-key177;msnemb-dp5633;$GPRMC,162213.000,A,3503.2435,N,08518.6543,W,1.59,186.12,170612,,,A*7E
user178;Super@234;msnemb-kiosk178;msnemb-bike3541;msnemb-key178;msnemb-dp5665;$GPRMC,162213.000,A,3503.2435,N,08518.6543,W,1.59,186.12,170612,,,A*7E
user179;Super@234;msnemb-kiosk179;msnemb-bike3561;msnemb-key179;msnemb-dp5697;$GPRMC,162213.000,A,3503.2435,N,08518.6543,W,1.59,186.12,170612,,,A*7E
user180;Super@234;msnemb-kiosk180;msnemb-bike3581;msnemb-key180;msnemb-dp5729;$GPRMC,162213.000,A,3503.2435,N,08518.6543,W,1.59,186.12,170612,,,A*7E
user181;Super@234;msnemb-kiosk181;msnemb-bike3601;msnemb-key181;msnemb-dp5761;$GPRMC,162213.000,A,3503.2435,N,08518.6543,W,1.59,186.12,170612,,,A*7E
user182;Super@234;msnemb-kiosk182;msnemb-bike3621;msnemb-key182;msnemb-dp5793;$GPRMC,162213.000,A,3503.2435,N,08518.6543,W,1.59,186.12,170612,,,A*7E
user183;Super@234;msnemb-kiosk183;msnemb-bike3641;msnemb-key183;msnemb-dp5825;$GPRMC,162213.000,A,3503.2435,N,08518.6543,W,1.59,186.12,170612,,,A*7E
user184;Super@234;msnemb-kiosk184;msnemb-bike3661;msnemb-key184;msnemb-dp5857;$GPRMC,162213.000,A,3503.2435,N,08518.6543,W,1.59,186.12,170612,,,A*7E
user185;Super@234;msnemb-kiosk185;msnemb-bike3681;msnemb-key185;msnemb-dp5889;$GPRMC,162213.000,A,3503.2435,N,08518.6543,W,1.59,186.12,170612,,,A*7E
user186;Super@234;msnemb-kiosk186;msnemb-bike3701;msnemb-key186;msnemb-dp5921;$GPRMC,162213.000,A,3503.2435,N,08518.6543,W,1.59,186.12,170612,,,A*7E
user187;Super@234;msnemb-kiosk187;msnemb-bike3721;msnemb-key187;msnemb-dp5953;$GPRMC,162213.000,A,3503.2435,N,08518.6543,W,1.59,186.12,170612,,,A*7E
user188;Super@234;msnemb-kiosk188;msnemb-bike3741;msnemb-key188;msnemb-dp5985;$GPRMC,162213.000,A,3503.2435,N,08518.6543,W,1.59,186.12,170612,,,A*7E
user189;Super@234;msnemb-kiosk189;msnemb-bike3761;msnemb-key189;msnemb-dp6017;$GPRMC,162213.000,A,3503.2435,N,08518.6543,W,1.59,186.12,170612,,,A*7E
user190;Super@234;msnemb-kiosk190;msnemb-bike3781;msnemb-key190;msnemb-dp6049;$GPRMC,162213.000,A,3503.2435,N,08518.6543,W,1.59,186.12,170612,,,A*7E
user191;Super@234;msnemb-kiosk191;msnemb-bike3801;msnemb-key191;msnemb-dp6081;$GPRMC,162213.000,A,3503.2435,N,08518.6543,W,1.59,186.12,170612,,,A*7E
user192;Super@234;msnemb-kiosk192;msnemb-bike3821;msnemb-key192;msnemb-dp6113;$GPRMC,162213.000,A,3503.2435,N,08518.6543,W,1.59,186.12,170612,,,A*7E
user193;Super@234;msnemb-kiosk193;msnemb-bike3841;msnemb-key193;msnemb-dp6145;$GPRMC,162213.000,A,3503.2435,N,08518.6543,W,1.59,186.12,170612,,,A*7E
user194;Super@234;msnemb-kiosk194;msnemb-bike3861;msnemb-key194;msnemb-dp6177;$GPRMC,162213.000,A,3503.2435,N,08518.6543,W,1.59,186.12,170612,,,A*7E
user195;Super@234;msnemb-kiosk195;msnemb-bike3881;msnemb-key195;msnemb-dp6209;$GPRMC,162213.000,A,3503.2435,N,08518.6543,W,1.59,186.12,170612,,,A*7E
user196;Super@234;msnemb-kiosk196;msnemb-bike3901;msnemb-key196;msnemb-dp6241;$GPRMC,162213.000,A,3503.2435,N,08518.6543,W,1.59,186.12,170612,,,A*7E
user197;Super@234;msnemb-kiosk197;msnemb-bike3921;msnemb-key197;msnemb-dp6273;$GPRMC,162213.000,A,3503.2435,N,08518.6543,W,1.59,186.12,170612,,,A*7E
user198;Super@234;msnemb-kiosk198;msnemb-bike3941;msnemb-key198;msnemb-dp6305;$GPRMC,162213.000,A,3503.2435,N,08518.6543,W,1.59,186.12,170612,,,A*7E
user199;Super@234;msnemb-kiosk199;msnemb-bike3961;msnemb-key199;msnemb-dp6337;$GPRMC,162213.000,A,3503.2435,N,08518.6543,W,1.59,186.12,170612,,,A*7E
user200;Super@234;msnemb-kiosk200;msnemb-bike3981;msnemb-key200;msnemb-dp6369;$GPRMC,162213.000,A,3503.2435,N,08518.6543,W,1.59,186.12,170612,,,A*7E
user201;Super@234;msnemb-kiosk201;msnemb-bike4001;msnemb-key201;msnemb-dp6401;$GPRMC,162213.000,A,3503.2435,N,08518.6543,W,1.59,186.12,170612,,,A*7E
user202;Super@234;msnemb-kiosk202;msnemb-bike4021;msnemb-key202;msnemb-dp6433;$GPRMC,162213.000,A,3503.2435,N,08518.6543,W,1.59,186.12,170612,,,A*7E
user203;Super@234;msnemb-kiosk203;msnemb-bike4041;msnemb-key203;msnemb-dp6465;$GPRMC,162213.000,A,3503.2435,N,08518.6543,W,1.59,186.12,170612,,,A*7E
user204;Super@234;msnemb-kiosk204;msnemb-bike4061;msnemb-key204;msnemb-dp6497;$GPRMC,162213.000,A,3503.2435,N,08518.6543,W,1.59,186.12,170612,,,A*7E
user205;Super@234;msnemb-kiosk205;msnemb-bike4081;msnemb-key205;msnemb-dp6529;$GPRMC,162213.000,A,3503.2435,N,08518.6543,W,1.59,186.12,170612,,,A*7E
user206;Super@234;msnemb-kiosk206;msnemb-bike4101;msnemb-key206;msnemb-dp6561;$GPRMC,162213.000,A,3503.2435,N,08518.6543,W,1.59,186.12,170612,,,A*7E
user207;Super@234;msnemb-kiosk207;msnemb-bike4121;msnemb-key207;msnemb-dp6593;$GPRMC,162213.000,A,3503.2435,N,08518.6543,W,1.59,186.12,170612,,,A*7E
user208;Super@234;msnemb-kiosk208;msnemb-bike4141;msnemb-key208;msnemb-dp6625;$GPRMC,162213.000,A,3503.2435,N,08518.6543,W,1.59,186.12,170612,,,A*7E
user209;Super@234;msnemb-kiosk209;msnemb-bike4161;msnemb-key209;msnemb-dp6657;$GPRMC,162213.000,A,3503.2435,N,08518.6543,W,1.59,186.12,170612,,,A*7E
user210;Super@234;msnemb-kiosk210;msnemb-bike4181;msnemb-key210;msnemb-dp6689;$GPRMC,162213.000,A,3503.2435,N,08518.6543,W,1.59,186.12,170612,,,A*7E
user211;Super@234;msnemb-kiosk211;msnemb-bike4201;msnemb-key211;msnemb-dp6721;$GPRMC,162213.000,A,3503.2435,N,08518.6543,W,1.59,186.12,170612,,,A*7E
user212;Super@234;msnemb-kiosk212;msnemb-bike4221;msnemb-key212;msnemb-dp6753;$GPRMC,162213.000,A,3503.2435,N,08518.6543,W,1.59,186.12,170612,,,A*7E
user213;Super@234;msnemb-kiosk213;msnemb-bike4241;msnemb-key213;msnemb-dp6785;$GPRMC,162213.000,A,3503.2435,N,08518.6543,W,1.59,186.12,170612,,,A*7E
user214;Super@234;msnemb-kiosk214;msnemb-bike4261;msnemb-key214;msnemb-dp6817;$GPRMC,162213.000,A,3503.2435,N,08518.6543,W,1.59,186.12,170612,,,A*7E
user215;Super@234;msnemb-kiosk215;msnemb-bike4281;msnemb-key215;msnemb-dp6849;$GPRMC,162213.000,A,3503.2435,N,08518.6543,W,1.59,186.12,170612,,,A*7E
user216;Super@234;msnemb-kiosk216;msnemb-bike4301;msnemb-key216;msnemb-dp6881;$GPRMC,162213.000,A,3503.2435,N,08518.6543,W,1.59,186.12,170612,,,A*7E
user217;Super@234;msnemb-kiosk217;msnemb-bike4321;msnemb-key217;msnemb-dp6913;$GPRMC,162213.000,A,3503.2435,N,08518.6543,W,1.59,186.12,170612,,,A*7E
user218;Super@234;msnemb-kiosk218;msnemb-bike4341;msnemb-key218;msnemb-dp6945;$GPRMC,162213.000,A,3503.2435,N,08518.6543,W,1.59,186.12,170612,,,A*7E
user219;Super@234;msnemb-kiosk219;msnemb-bike4361;msnemb-key219;msnemb-dp6977;$GPRMC,162213.000,A,3503.2435,N,08518.6543,W,1.59,186.12,170612,,,A*7E
user220;Super@234;msnemb-kiosk220;msnemb-bike4381;msnemb-key220;msnemb-dp7009;$GPRMC,162213.000,A,3503.2435,N,08518.6543,W,1.59,186.12,170612,,,A*7E
user221;Super@234;msnemb-kiosk221;msnemb-bike4401;msnemb-key221;msnemb-dp7041;$GPRMC,162213.000,A,3503.2435,N,08518.6543,W,1.59,186.12,170612,,,A*7E
user222;Super@234;msnemb-kiosk222;msnemb-bike4421;msnemb-key222;msnemb-dp7073;$GPRMC,162213.000,A,3503.2435,N,08518.6543,W,1.59,186.12,170612,,,A*7E
user223;Super@234;msnemb-kiosk223;msnemb-bike4441;msnemb-key223;msnemb-dp7105;$GPRMC,162213.000,A,3503.2435,N,08518.6543,W,1.59,186.12,170612,,,A*7E
user224;Super@234;msnemb-kiosk224;msnemb-bike4461;msnemb-key224;msnemb-dp7137;$GPRMC,162213.000,A,3503.2435,N,08518.6543,W,1.59,186.12,170612,,,A*7E
user225;Super@234;msnemb-kiosk225;msnemb-bike4481;msnemb-key225;msnemb-dp7169;$GPRMC,162213.000,A,3503.2435,N,08518.6543,W,1.59,186.12,170612,,,A*7E
user226;Super@234;msnemb-kiosk226;msnemb-bike4501;msnemb-key226;msnemb-dp7201;$GPRMC,162213.000,A,3503.2435,N,08518.6543,W,1.59,186.12,170612,,,A*7E
user227;Super@234;msnemb-kiosk227;msnemb-bike4521;msnemb-key227;msnemb-dp7233;$GPRMC,162213.000,A,3503.2435,N,08518.6543,W,1.59,186.12,170612,,,A*7E
user228;Super@234;msnemb-kiosk228;msnemb-bike4541;msnemb-key228;msnemb-dp7265;$GPRMC,162213.000,A,3503.2435,N,08518.6543,W,1.59,186.12,170612,,,A*7E
user229;Super@234;msnemb-kiosk229;msnemb-bike4561;msnemb-key229;msnemb-dp7297;$GPRMC,162213.000,A,3503.2435,N,08518.6543,W,1.59,186.12,170612,,,A*7E
user230;Super@234;msnemb-kiosk230;msnemb-bike4581;msnemb-key230;msnemb-dp7329;$GPRMC,162213.000,A,3503.2435,N,08518.6543,W,1.59,186.12,170612,,,A*7E
user231;Super@234;msnemb-kiosk231;msnemb-bike4601;msnemb-key231;msnemb-dp7361;$GPRMC,162213.000,A,3503.2435,N,08518.6543,W,1.59,186.12,170612,,,A*7E
user232;Super@234;msnemb-kiosk232;msnemb-bike4621;msnemb-key232;msnemb-dp7393;$GPRMC,162213.000,A,3503.2435,N,08518.6543,W,1.59,186.12,170612,,,A*7E
user233;Super@234;msnemb-kiosk233;msnemb-bike4641;msnemb-key233;msnemb-dp7425;$GPRMC,162213.000,A,3503.2435,N,08518.6543,W,1.59,186.12,170612,,,A*7E
user234;Super@234;msnemb-kiosk234;msnemb-bike4661;msnemb-key234;msnemb-dp7457;$GPRMC,162213.000,A,3503.2435,N,08518.6543,W,1.59,186.12,170612,,,A*7E
user235;Super@234;msnemb-kiosk235;msnemb-bike4681;msnemb-key235;msnemb-dp7489;$GPRMC,162213.000,A,3503.2435,N,08518.6543,W,1.59,186.12,170612,,,A*7E
user236;Super@234;msnemb-kiosk236;msnemb-bike4701;msnemb-key236;msnemb-dp7521;$GPRMC,162213.000,A,3503.2435,N,08518.6543,W,1.59,186.12,170612,,,A*7E
user237;Super@234;msnemb-kiosk237;msnemb-bike4721;msnemb-key237;msnemb-dp7553;$GPRMC,162213.000,A,3503.2435,N,08518.6543,W,1.59,186.12,170612,,,A*7E
user238;Super@234;msnemb-kiosk238;msnemb-bike4741;msnemb-key238;msnemb-dp7585;$GPRMC,162213.000,A,3503.2435,N,08518.6543,W,1.59,186.12,170612,,,A*7E
user239;Super@234;msnemb-kiosk239;msnemb-bike4761;msnemb-key239;msnemb-dp7617;$GPRMC,162213.000,A,3503.2435,N,08518.6543,W,1.59,186.12,170612,,,A*7E
user240;Super@234;msnemb-kiosk240;msnemb-bike4781;msnemb-key240;msnemb-dp7649;$GPRMC,162213.000,A,3503.2435,N,08518.6543,W,1.59,186.12,170612,,,A*7E
user241;Super@234;msnemb-kiosk241;msnemb-bike4801;msnemb-key241;msnemb-dp7681;$GPRMC,162213.000,A,3503.2435,N,08518.6543,W,1.59,186.12,170612,,,A*7E
user242;Super@234;msnemb-kiosk242;msnemb-bike4821;msnemb-key242;msnemb-dp7713;$GPRMC,162213.000,A,3503.2435,N,08518.6543,W,1.59,186.12,170612,,,A*7E
user243;Super@234;msnemb-kiosk243;msnemb-bike4841;msnemb-key243;msnemb-dp7745;$GPRMC,162213.000,A,3503.2435,N,08518.6543,W,1.59,186.12,170612,,,A*7E
user244;Super@234;msnemb-kiosk244;msnemb-bike4861;msnemb-key244;msnemb-dp7777;$GPRMC,162213.000,A,3503.2435,N,08518.6543,W,1.59,186.12,170612,,,A*7E
user245;Super@234;msnemb-kiosk245;msnemb-bike4881;msnemb-key245;msnemb-dp7809;$GPRMC,162213.000,A,3503.2435,N,08518.6543,W,1.59,186.12,170612,,,A*7E
user246;Super@234;msnemb-kiosk246;msnemb-bike4901;msnemb-key246;msnemb-dp7841;$GPRMC,162213.000,A,3503.2435,N,08518.6543,W,1.59,186.12,170612,,,A*7E
user247;Super@234;msnemb-kiosk247;msnemb-bike4921;msnemb-key247;msnemb-dp7873;$GPRMC,162213.000,A,3503.2435,N,08518.6543,W,1.59,186.12,170612,,,A*7E
user248;Super@234;msnemb-kiosk248;msnemb-bike4941;msnemb-key248;msnemb-dp7905;$GPRMC,162213.000,A,3503.2435,N,08518.6543,W,1.59,186.12,170612,,,A*7E
user249;Super@234;msnemb-kiosk249;msnemb-bike4961;msnemb-key249;msnemb-dp7937;$GPRMC,162213.000,A,3503.2435,N,08518.6543,W,1.59,186.12,170612,,,A*7E
user250;Super@234;msnemb-kiosk250;msnemb-bike4981;msnemb-key250;msnemb-dp7969;$GPRMC,162213.000,A,3503.2435,N,08518.6543,W,1.59,186.12,170612,,,A*7E
user251;Super@234;msnemb-kiosk251;msnemb-bike5001;msnemb-key251;msnemb-dp8001;$GPRMC,162213.000,A,3503.2435,N,08518.6543,W,1.59,186.12,170612,,,A*7E
user252;Super@234;msnemb-kiosk252;msnemb-bike5021;msnemb-key252;msnemb-dp8033;$GPRMC,162213.000,A,3503.2435,N,08518.6543,W,1.59,186.12,170612,,,A*7E
user253;Super@234;msnemb-kiosk253;msnemb-bike5041;msnemb-key253;msnemb-dp8065;$GPRMC,162213.000,A,3503.2435,N,08518.6543,W,1.59,186.12,170612,,,A*7E
user254;Super@234;msnemb-kiosk254;msnemb-bike5061;msnemb-key254;msnemb-dp8097;$GPRMC,162213.000,A,3503.2435,N,08518.6543,W,1.59,186.12,170612,,,A*7E
user255;Super@234;msnemb-kiosk255;msnemb-bike5081;msnemb-key255;msnemb-dp8129;$GPRMC,162213.000,A,3503.2435,N,08518.6543,W,1.59,186.12,170612,,,A*7E
user256;Super@234;msnemb-kiosk256;msnemb-bike5101;msnemb-key256;msnemb-dp8161;$GPRMC,162213.000,A,3503.2435,N,08518.6543,W,1.59,186.12,170612,,,A*7E
user257;Super@234;msnemb-kiosk257;msnemb-bike5121;msnemb-key257;msnemb-dp8193;$GPRMC,162213.000,A,3503.2435,N,08518.6543,W,1.59,186.12,170612,,,A*7E
user258;Super@234;msnemb-kiosk258;msnemb-bike5141;msnemb-key258;msnemb-dp8225;$GPRMC,162213.000,A,3503.2435,N,08518.6543,W,1.59,186.12,170612,,,A*7E
user259;Super@234;msnemb-kiosk259;msnemb-bike5161;msnemb-key259;msnemb-dp8257;$GPRMC,162213.000,A,3503.2435,N,08518.6543,W,1.59,186.12,170612,,,A*7E
user260;Super@234;msnemb-kiosk260;msnemb-bike5181;msnemb-key260;msnemb-dp8289;$GPRMC,162213.000,A,3503.2435,N,08518.6543,W,1.59,186.12,170612,,,A*7E
user261;Super@234;msnemb-kiosk261;msnemb-bike5201;msnemb-key261;msnemb-dp8321;$GPRMC,162213.000,A,3503.2435,N,08518.6543,W,1.59,186.12,170612,,,A*7E
user262;Super@234;msnemb-kiosk262;msnemb-bike5221;msnemb-key262;msnemb-dp8353;$GPRMC,162213.000,A,3503.2435,N,08518.6543,W,1.59,186.12,170612,,,A*7E
user263;Super@234;msnemb-kiosk263;msnemb-bike5241;msnemb-key263;msnemb-dp8385;$GPRMC,162213.000,A,3503.2435,N,08518.6543,W,1.59,186.12,170612,,,A*7E
user264;Super@234;msnemb-kiosk264;msnemb-bike5261;msnemb-key264;msnemb-dp8417;$GPRMC,162213.000,A,3503.2435,N,08518.6543,W,1.59,186.12,170612,,,A*7E
user265;Super@234;msnemb-kiosk265;msnemb-bike5281;msnemb-key265;msnemb-dp8449;$GPRMC,162213.000,A,3503.2435,N,08518.6543,W,1.59,186.12,170612,,,A*7E
user266;Super@234;msnemb-kiosk266;msnemb-bike5301;msnemb-key266;msnemb-dp8481;$GPRMC,162213.000,A,3503.2435,N,08518.6543,W,1.59,186.12,170612,,,A*7E
user267;Super@234;msnemb-kiosk267;msnemb-bike5321;msnemb-key267;msnemb-dp8513;$GPRMC,162213.000,A,3503.2435,N,08518.6543,W,1.59,186.12,170612,,,A*7E
user268;Super@234;msnemb-kiosk268;msnemb-bike5341;msnemb-key268;msnemb-dp8545;$GPRMC,162213.000,A,3503.2435,N,08518.6543,W,1.59,186.12,170612,,,A*7E
user269;Super@234;msnemb-kiosk269;msnemb-bike5361;msnemb-key269;msnemb-dp8577;$GPRMC,162213.000,A,3503.2435,N,08518.6543,W,1.59,186.12,170612,,,A*7E
user270;Super@234;msnemb-kiosk270;msnemb-bike5381;msnemb-key270;msnemb-dp8609;$GPRMC,162213.000,A,3503.2435,N,08518.6543,W,1.59,186.12,170612,,,A*7E
user271;Super@234;msnemb-kiosk271;msnemb-bike5401;msnemb-key271;msnemb-dp8641;$GPRMC,162213.000,A,3503.2435,N,08518.6543,W,1.59,186.12,170612,,,A*7E
user272;Super@234;msnemb-kiosk272;msnemb-bike5421;msnemb-key272;msnemb-dp8673;$GPRMC,162213.000,A,3503.2435,N,08518.6543,W,1.59,186.12,170612,,,A*7E
user273;Super@234;msnemb-kiosk273;msnemb-bike5441;msnemb-key273;msnemb-dp8705;$GPRMC,162213.000,A,3503.2435,N,08518.6543,W,1.59,186.12,170612,,,A*7E
user274;Super@234;msnemb-kiosk274;msnemb-bike5461;msnemb-key274;msnemb-dp8737;$GPRMC,162213.000,A,3503.2435,N,08518.6543,W,1.59,186.12,170612,,,A*7E
user275;Super@234;msnemb-kiosk275;msnemb-bike5481;msnemb-key275;msnemb-dp8769;$GPRMC,162213.000,A,3503.2435,N,08518.6543,W,1.59,186.12,170612,,,A*7E
user276;Super@234;msnemb-kiosk276;msnemb-bike5501;msnemb-key276;msnemb-dp8801;$GPRMC,162213.000,A,3503.2435,N,08518.6543,W,1.59,186.12,170612,,,A*7E
user277;Super@234;msnemb-kiosk277;msnemb-bike5521;msnemb-key277;msnemb-dp8833;$GPRMC,162213.000,A,3503.2435,N,08518.6543,W,1.59,186.12,170612,,,A*7E
user278;Super@234;msnemb-kiosk278;msnemb-bike5541;msnemb-key278;msnemb-dp8865;$GPRMC,162213.000,A,3503.2435,N,08518.6543,W,1.59,186.12,170612,,,A*7E
user279;Super@234;msnemb-kiosk279;msnemb-bike5561;msnemb-key279;msnemb-dp8897;$GPRMC,162213.000,A,3503.2435,N,08518.6543,W,1.59,186.12,170612,,,A*7E
user280;Super@234;msnemb-kiosk280;msnemb-bike5581;msnemb-key280;msnemb-dp8929;$GPRMC,162213.000,A,3503.2435,N,08518.6543,W,1.59,186.12,170612,,,A*7E
user281;Super@234;msnemb-kiosk281;msnemb-bike5601;msnemb-key281;msnemb-dp8961;$GPRMC,162213.000,A,3503.2435,N,08518.6543,W,1.59,186.12,170612,,,A*7E
user282;Super@234;msnemb-kiosk282;msnemb-bike5621;msnemb-key282;msnemb-dp8993;$GPRMC,162213.000,A,3503.2435,N,08518.6543,W,1.59,186.12,170612,,,A*7E
user283;Super@234;msnemb-kiosk283;msnemb-bike5641;msnemb-key283;msnemb-dp9025;$GPRMC,162213.000,A,3503.2435,N,08518.6543,W,1.59,186.12,170612,,,A*7E
user284;Super@234;msnemb-kiosk284;msnemb-bike5661;msnemb-key284;msnemb-dp9057;$GPRMC,162213.000,A,3503.2435,N,08518.6543,W,1.59,186.12,170612,,,A*7E
user285;Super@234;msnemb-kiosk285;msnemb-bike5681;msnemb-key285;msnemb-dp9089;$GPRMC,162213.000,A,3503.2435,N,08518.6543,W,1.59,186.12,170612,,,A*7E
user286;Super@234;msnemb-kiosk286;msnemb-bike5701;msnemb-key286;msnemb-dp9121;$GPRMC,162213.000,A,3503.2435,N,08518.6543,W,1.59,186.12,170612,,,A*7E
user287;Super@234;msnemb-kiosk287;msnemb-bike5721;msnemb-key287;msnemb-dp9153;$GPRMC,162213.000,A,3503.2435,N,08518.6543,W,1.59,186.12,170612,,,A*7E
user288;Super@234;msnemb-kiosk288;msnemb-bike5741;msnemb-key288;msnemb-dp9185;$GPRMC,162213.000,A,3503.2435,N,08518.6543,W,1.59,186.12,170612,,,A*7E
user289;Super@234;msnemb-kiosk289;msnemb-bike5761;msnemb-key289;msnemb-dp9217;$GPRMC,162213.000,A,3503.2435,N,08518.6543,W,1.59,186.12,170612,,,A*7E
user290;Super@234;msnemb-kiosk290;msnemb-bike5781;msnemb-key290;msnemb-dp9249;$GPRMC,162213.000,A,3503.2435,N,08518.6543,W,1.59,186.12,170612,,,A*7E
user291;Super@234;msnemb-kiosk291;msnemb-bike5801;msnemb-key291;msnemb-dp9281;$GPRMC,162213.000,A,3503.2435,N,08518.6543,W,1.59,186.12,170612,,,A*7E
user292;Super@234;msnemb-kiosk292;msnemb-bike5821;msnemb-key292;msnemb-dp9313;$GPRMC,162213.000,A,3503.2435,N,08518.6543,W,1.59,186.12,170612,,,A*7E
user293;Super@234;msnemb-kiosk293;msnemb-bike5841;msnemb-key293;msnemb-dp9345;$GPRMC,162213.000,A,3503.2435,N,08518.6543,W,1.59,186.12,170612,,,A*7E
user294;Super@234;msnemb-kiosk294;msnemb-bike5861;msnemb-key294;msnemb-dp9377;$GPRMC,162213.000,A,3503.2435,N,08518.6543,W,1.59,186.12,170612,,,A*7E
user295;Super@234;msnemb-kiosk295;msnemb-bike5881;msnemb-key295;msnemb-dp9409;$GPRMC,162213.000,A,3503.2435,N,08518.6543,W,1.59,186.12,170612,,,A*7E
user296;Super@234;msnemb-kiosk296;msnemb-bike5901;msnemb-key296;msnemb-dp9441;$GPRMC,162213.000,A,3503.2435,N,08518.6543,W,1.59,186.12,170612,,,A*7E
user297;Super@234;msnemb-kiosk297;msnemb-bike5921;msnemb-key297;msnemb-dp9473;$GPRMC,162213.000,A,3503.2435,N,08518.6543,W,1.59,186.12,170612,,,A*7E
user298;Super@234;msnemb-kiosk298;msnemb-bike5941;msnemb-key298;msnemb-dp9505;$GPRMC,162213.000,A,3503.2435,N,08518.6543,W,1.59,186.12,170612,,,A*7E
user299;Super@234;msnemb-kiosk299;msnemb-bike5961;msnemb-key299;msnemb-dp9537;$GPRMC,162213.000,A,3503.2435,N,08518.6543,W,1.59,186.12,170612,,,A*7E
user300;Super@234;msnemb-kiosk300;msnemb-bike5981;msnemb-key300;msnemb-dp9569;$GPRMC,162213.000,A,3503.2435,N,08518.6543,W,1.59,186.12,170612,,,A*7E
user301;Super@234;msnemb-kiosk301;msnemb-bike6001;msnemb-key301;msnemb-dp9601;$GPRMC,162213.000,A,3503.2435,N,08518.6543,W,1.59,186.12,170612,,,A*7E
user302;Super@234;msnemb-kiosk302;msnemb-bike6021;msnemb-key302;msnemb-dp9633;$GPRMC,162213.000,A,3503.2435,N,08518.6543,W,1.59,186.12,170612,,,A*7E
user303;Super@234;msnemb-kiosk303;msnemb-bike6041;msnemb-key303;msnemb-dp9665;$GPRMC,162213.000,A,3503.2435,N,08518.6543,W,1.59,186.12,170612,,,A*7E
user304;Super@234;msnemb-kiosk304;msnemb-bike6061;msnemb-key304;msnemb-dp9697;$GPRMC,162213.000,A,3503.2435,N,08518.6543,W,1.59,186.12,170612,,,A*7E
user305;Super@234;msnemb-kiosk305;msnemb-bike6081;msnemb-key305;msnemb-dp9729;$GPRMC,162213.000,A,3503.2435,N,08518.6543,W,1.59,186.12,170612,,,A*7E
user306;Super@234;msnemb-kiosk306;msnemb-bike6101;msnemb-key306;msnemb-dp9761;$GPRMC,162213.000,A,3503.2435,N,08518.6543,W,1.59,186.12,170612,,,A*7E
user307;Super@234;msnemb-kiosk307;msnemb-bike6121;msnemb-key307;msnemb-dp9793;$GPRMC,162213.000,A,3503.2435,N,08518.6543,W,1.59,186.12,170612,,,A*7E
user308;Super@234;msnemb-kiosk308;msnemb-bike6141;msnemb-key308;msnemb-dp9825;$GPRMC,162213.000,A,3503.2435,N,08518.6543,W,1.59,186.12,170612,,,A*7E
user309;Super@234;msnemb-kiosk309;msnemb-bike6161;msnemb-key309;msnemb-dp9857;$GPRMC,162213.000,A,3503.2435,N,08518.6543,W,1.59,186.12,170612,,,A*7E
user310;Super@234;msnemb-kiosk310;msnemb-bike6181;msnemb-key310;msnemb-dp9889;$GPRMC,162213.000,A,3503.2435,N,08518.6543,W,1.59,186.12,170612,,,A*7E
user311;Super@234;msnemb-kiosk311;msnemb-bike6201;msnemb-key311;msnemb-dp9921;$GPRMC,162213.000,A,3503.2435,N,08518.6543,W,1.59,186.12,170612,,,A*7E
user312;Super@234;msnemb-kiosk312;msnemb-bike6221;msnemb-key312;msnemb-dp9953;$GPRMC,162213.000,A,3503.2435,N,08518.6543,W,1.59,186.12,170612,,,A*7E
user313;Super@234;msnemb-kiosk313;msnemb-bike6241;msnemb-key313;msnemb-dp9985;$GPRMC,162213.000,A,3503.2435,N,08518.6543,W,1.59,186.12,170612,,,A*7E
user314;Super@234;msnemb-kiosk314;msnemb-bike6261;msnemb-key314;msnemb-dp10017;$GPRMC,162213.000,A,3503.2435,N,08518.6543,W,1.59,186.12,170612,,,A*7E
user315;Super@234;msnemb-kiosk315;msnemb-bike6281;msnemb-key315;msnemb-dp10049;$GPRMC,162213.000,A,3503.2435,N,08518.6543,W,1.59,186.12,170612,,,A*7E
user316;Super@234;msnemb-kiosk316;msnemb-bike6301;msnemb-key316;msnemb-dp10081;$GPRMC,162213.000,A,3503.2435,N,08518.6543,W,1.59,186.12,170612,,,A*7E
user317;Super@234;msnemb-kiosk317;msnemb-bike6321;msnemb-key317;msnemb-dp10113;$GPRMC,162213.000,A,3503.2435,N,08518.6543,W,1.59,186.12,170612,,,A*7E
user318;Super@234;msnemb-kiosk318;msnemb-bike6341;msnemb-key318;msnemb-dp10145;$GPRMC,162213.000,A,3503.2435,N,08518.6543,W,1.59,186.12,170612,,,A*7E
user319;Super@234;msnemb-kiosk319;msnemb-bike6361;msnemb-key319;msnemb-dp10177;$GPRMC,162213.000,A,3503.2435,N,08518.6543,W,1.59,186.12,170612,,,A*7E
user320;Super@234;msnemb-kiosk320;msnemb-bike6381;msnemb-key320;msnemb-dp10209;$GPRMC,162213.000,A,3503.2435,N,08518.6543,W,1.59,186.12,170612,,,A*7E
user321;Super@234;msnemb-kiosk321;msnemb-bike6401;msnemb-key321;msnemb-dp10241;$GPRMC,162213.000,A,3503.2435,N,08518.6543,W,1.59,186.12,170612,,,A*7E
user322;Super@234;msnemb-kiosk322;msnemb-bike6421;msnemb-key322;msnemb-dp10273;$GPRMC,162213.000,A,3503.2435,N,08518.6543,W,1.59,186.12,170612,,,A*7E
user323;Super@234;msnemb-kiosk323;msnemb-bike6441;msnemb-key323;msnemb-dp10305;$GPRMC,162213.000,A,3503.2435,N,08518.6543,W,1.59,186.12,170612,,,A*7E
user324;Super@234;msnemb-kiosk324;msnemb-bike6461;msnemb-key324;msnemb-dp10337;$GPRMC,162213.000,A,3503.2435,N,08518.6543,W,1.59,186.12,170612,,,A*7E
user325;Super@234;msnemb-kiosk325;msnemb-bike6481;msnemb-key325;msnemb-dp10369;$GPRMC,162213.000,A,3503.2435,N,08518.6543,W,1.59,186.12,170612,,,A*7E
user326;Super@234;msnemb-kiosk326;msnemb-bike6501;msnemb-key326;msnemb-dp10401;$GPRMC,162213.000,A,3503.2435,N,08518.6543,W,1.59,186.12,170612,,,A*7E
user327;Super@234;msnemb-kiosk327;msnemb-bike6521;msnemb-key327;msnemb-dp10433;$GPRMC,162213.000,A,3503.2435,N,08518.6543,W,1.59,186.12,170612,,,A*7E
user328;Super@234;msnemb-kiosk328;msnemb-bike6541;msnemb-key328;msnemb-dp10465;$GPRMC,162213.000,A,3503.2435,N,08518.6543,W,1.59,186.12,170612,,,A*7E
user329;Super@234;msnemb-kiosk329;msnemb-bike6561;msnemb-key329;msnemb-dp10497;$GPRMC,162213.000,A,3503.2435,N,08518.6543,W,1.59,186.12,170612,,,A*7E
user330;Super@234;msnemb-kiosk330;msnemb-bike6581;msnemb-key330;msnemb-dp10529;$GPRMC,162213.000,A,3503.2435,N,08518.6543,W,1.59,186.12,170612,,,A*7E
user331;Super@234;msnemb-kiosk331;msnemb-bike6601;msnemb-key331;msnemb-dp10561;$GPRMC,162213.000,A,3503.2435,N,08518.6543,W,1.59,186.12,170612,,,A*7E
user332;Super@234;msnemb-kiosk332;msnemb-bike6621;msnemb-key332;msnemb-dp10593;$GPRMC,162213.000,A,3503.2435,N,08518.6543,W,1.59,186.12,170612,,,A*7E
user333;Super@234;msnemb-kiosk333;msnemb-bike6641;msnemb-key333;msnemb-dp10625;$GPRMC,162213.000,A,3503.2435,N,08518.6543,W,1.59,186.12,170612,,,A*7E
user334;Super@234;msnemb-kiosk334;msnemb-bike6661;msnemb-key334;msnemb-dp10657;$GPRMC,162213.000,A,3503.2435,N,08518.6543,W,1.59,186.12,170612,,,A*7E
user335;Super@234;msnemb-kiosk335;msnemb-bike6681;msnemb-key335;msnemb-dp10689;$GPRMC,162213.000,A,3503.2435,N,08518.6543,W,1.59,186.12,170612,,,A*7E
user336;Super@234;msnemb-kiosk336;msnemb-bike6701;msnemb-key336;msnemb-dp10721;$GPRMC,162213.000,A,3503.2435,N,08518.6543,W,1.59,186.12,170612,,,A*7E
user337;Super@234;msnemb-kiosk337;msnemb-bike6721;msnemb-key337;msnemb-dp10753;$GPRMC,162213.000,A,3503.2435,N,08518.6543,W,1.59,186.12,170612,,,A*7E
user338;Super@234;msnemb-kiosk338;msnemb-bike6741;msnemb-key338;msnemb-dp10785;$GPRMC,162213.000,A,3503.2435,N,08518.6543,W,1.59,186.12,170612,,,A*7E
user339;Super@234;msnemb-kiosk339;msnemb-bike6761;msnemb-key339;msnemb-dp10817;$GPRMC,162213.000,A,3503.2435,N,08518.6543,W,1.59,186.12,170612,,,A*7E
user340;Super@234;msnemb-kiosk340;msnemb-bike6781;msnemb-key340;msnemb-dp10849;$GPRMC,162213.000,A,3503.2435,N,08518.6543,W,1.59,186.12,170612,,,A*7E
user341;Super@234;msnemb-kiosk341;msnemb-bike6801;msnemb-key341;msnemb-dp10881;$GPRMC,162213.000,A,3503.2435,N,08518.6543,W,1.59,186.12,170612,,,A*7E
user342;Super@234;msnemb-kiosk342;msnemb-bike6821;msnemb-key342;msnemb-dp10913;$GPRMC,162213.000,A,3503.2435,N,08518.6543,W,1.59,186.12,170612,,,A*7E
user343;Super@234;msnemb-kiosk343;msnemb-bike6841;msnemb-key343;msnemb-dp10945;$GPRMC,162213.000,A,3503.2435,N,08518.6543,W,1.59,186.12,170612,,,A*7E
user344;Super@234;msnemb-kiosk344;msnemb-bike6861;msnemb-key344;msnemb-dp10977;$GPRMC,162213.000,A,3503.2435,N,08518.6543,W,1.59,186.12,170612,,,A*7E
user345;Super@234;msnemb-kiosk345;msnemb-bike6881;msnemb-key345;msnemb-dp11009;$GPRMC,162213.000,A,3503.2435,N,08518.6543,W,1.59,186.12,170612,,,A*7E
user346;Super@234;msnemb-kiosk346;msnemb-bike6901;msnemb-key346;msnemb-dp11041;$GPRMC,162213.000,A,3503.2435,N,08518.6543,W,1.59,186.12,170612,,,A*7E
user347;Super@234;msnemb-kiosk347;msnemb-bike6921;msnemb-key347;msnemb-dp11073;$GPRMC,162213.000,A,3503.2435,N,08518.6543,W,1.59,186.12,170612,,,A*7E
user348;Super@234;msnemb-kiosk348;msnemb-bike6941;msnemb-key348;msnemb-dp11105;$GPRMC,162213.000,A,3503.2435,N,08518.6543,W,1.59,186.12,170612,,,A*7E
user349;Super@234;msnemb-kiosk349;msnemb-bike6961;msnemb-key349;msnemb-dp11137;$GPRMC,162213.000,A,3503.2435,N,08518.6543,W,1.59,186.12,170612,,,A*7E
user350;Super@234;msnemb-kiosk350;msnemb-bike6981;msnemb-key350;msnemb-dp11169;$GPRMC,162213.000,A,3503.2435,N,08518.6543,W,1.59,186.12,170612,,,A*7E
user351;Super@234;msnemb-kiosk351;msnemb-bike7001;msnemb-key351;msnemb-dp11201;$GPRMC,162213.000,A,3503.2435,N,08518.6543,W,1.59,186.12,170612,,,A*7E
user352;Super@234;msnemb-kiosk352;msnemb-bike7021;msnemb-key352;msnemb-dp11233;$GPRMC,162213.000,A,3503.2435,N,08518.6543,W,1.59,186.12,170612,,,A*7E
user353;Super@234;msnemb-kiosk353;msnemb-bike7041;msnemb-key353;msnemb-dp11265;$GPRMC,162213.000,A,3503.2435,N,08518.6543,W,1.59,186.12,170612,,,A*7E
user354;Super@234;msnemb-kiosk354;msnemb-bike7061;msnemb-key354;msnemb-dp11297;$GPRMC,162213.000,A,3503.2435,N,08518.6543,W,1.59,186.12,170612,,,A*7E
user355;Super@234;msnemb-kiosk355;msnemb-bike7081;msnemb-key355;msnemb-dp11329;$GPRMC,162213.000,A,3503.2435,N,08518.6543,W,1.59,186.12,170612,,,A*7E
user356;Super@234;msnemb-kiosk356;msnemb-bike7101;msnemb-key356;msnemb-dp11361;$GPRMC,162213.000,A,3503.2435,N,08518.6543,W,1.59,186.12,170612,,,A*7E
user357;Super@234;msnemb-kiosk357;msnemb-bike7121;msnemb-key357;msnemb-dp11393;$GPRMC,162213.000,A,3503.2435,N,08518.6543,W,1.59,186.12,170612,,,A*7E
user358;Super@234;msnemb-kiosk358;msnemb-bike7141;msnemb-key358;msnemb-dp11425;$GPRMC,162213.000,A,3503.2435,N,08518.6543,W,1.59,186.12,170612,,,A*7E
user359;Super@234;msnemb-kiosk359;msnemb-bike7161;msnemb-key359;msnemb-dp11457;$GPRMC,162213.000,A,3503.2435,N,08518.6543,W,1.59,186.12,170612,,,A*7E
user360;Super@234;msnemb-kiosk360;msnemb-bike7181;msnemb-key360;msnemb-dp11489;$GPRMC,162213.000,A,3503.2435,N,08518.6543,W,1.59,186.12,170612,,,A*7E
user361;Super@234;msnemb-kiosk361;msnemb-bike7201;msnemb-key361;msnemb-dp11521;$GPRMC,162213.000,A,3503.2435,N,08518.6543,W,1.59,186.12,170612,,,A*7E
user362;Super@234;msnemb-kiosk362;msnemb-bike7221;msnemb-key362;msnemb-dp11553;$GPRMC,162213.000,A,3503.2435,N,08518.6543,W,1.59,186.12,170612,,,A*7E
user363;Super@234;msnemb-kiosk363;msnemb-bike7241;msnemb-key363;msnemb-dp11585;$GPRMC,162213.000,A,3503.2435,N,08518.6543,W,1.59,186.12,170612,,,A*7E
user364;Super@234;msnemb-kiosk364;msnemb-bike7261;msnemb-key364;msnemb-dp11617;$GPRMC,162213.000,A,3503.2435,N,08518.6543,W,1.59,186.12,170612,,,A*7E
user365;Super@234;msnemb-kiosk365;msnemb-bike7281;msnemb-key365;msnemb-dp11649;$GPRMC,162213.000,A,3503.2435,N,08518.6543,W,1.59,186.12,170612,,,A*7E
user366;Super@234;msnemb-kiosk366;msnemb-bike7301;msnemb-key366;msnemb-dp11681;$GPRMC,162213.000,A,3503.2435,N,08518.6543,W,1.59,186.12,170612,,,A*7E
user367;Super@234;msnemb-kiosk367;msnemb-bike7321;msnemb-key367;msnemb-dp11713;$GPRMC,162213.000,A,3503.2435,N,08518.6543,W,1.59,186.12,170612,,,A*7E
user368;Super@234;msnemb-kiosk368;msnemb-bike7341;msnemb-key368;msnemb-dp11745;$GPRMC,162213.000,A,3503.2435,N,08518.6543,W,1.59,186.12,170612,,,A*7E
user369;Super@234;msnemb-kiosk369;msnemb-bike7361;msnemb-key369;msnemb-dp11777;$GPRMC,162213.000,A,3503.2435,N,08518.6543,W,1.59,186.12,170612,,,A*7E
user370;Super@234;msnemb-kiosk370;msnemb-bike7381;msnemb-key370;msnemb-dp11809;$GPRMC,162213.000,A,3503.2435,N,08518.6543,W,1.59,186.12,170612,,,A*7E
user371;Super@234;msnemb-kiosk371;msnemb-bike7401;msnemb-key371;msnemb-dp11841;$GPRMC,162213.000,A,3503.2435,N,08518.6543,W,1.59,186.12,170612,,,A*7E
user372;Super@234;msnemb-kiosk372;msnemb-bike7421;msnemb-key372;msnemb-dp11873;$GPRMC,162213.000,A,3503.2435,N,08518.6543,W,1.59,186.12,170612,,,A*7E
user373;Super@234;msnemb-kiosk373;msnemb-bike7441;msnemb-key373;msnemb-dp11905;$GPRMC,162213.000,A,3503.2435,N,08518.6543,W,1.59,186.12,170612,,,A*7E
user374;Super@234;msnemb-kiosk374;msnemb-bike7461;msnemb-key374;msnemb-dp11937;$GPRMC,162213.000,A,3503.2435,N,08518.6543,W,1.59,186.12,170612,,,A*7E
user375;Super@234;msnemb-kiosk375;msnemb-bike7481;msnemb-key375;msnemb-dp11969;$GPRMC,162213.000,A,3503.2435,N,08518.6543,W,1.59,186.12,170612,,,A*7E
user376;Super@234;msnemb-kiosk376;msnemb-bike7501;msnemb-key376;msnemb-dp12001;$GPRMC,162213.000,A,3503.2435,N,08518.6543,W,1.59,186.12,170612,,,A*7E
user377;Super@234;msnemb-kiosk377;msnemb-bike7521;msnemb-key377;msnemb-dp12033;$GPRMC,162213.000,A,3503.2435,N,08518.6543,W,1.59,186.12,170612,,,A*7E
user378;Super@234;msnemb-kiosk378;msnemb-bike7541;msnemb-key378;msnemb-dp12065;$GPRMC,162213.000,A,3503.2435,N,08518.6543,W,1.59,186.12,170612,,,A*7E
user379;Super@234;msnemb-kiosk379;msnemb-bike7561;msnemb-key379;msnemb-dp12097;$GPRMC,162213.000,A,3503.2435,N,08518.6543,W,1.59,186.12,170612,,,A*7E
user380;Super@234;msnemb-kiosk380;msnemb-bike7581;msnemb-key380;msnemb-dp12129;$GPRMC,162213.000,A,3503.2435,N,08518.6543,W,1.59,186.12,170612,,,A*7E
user381;Super@234;msnemb-kiosk381;msnemb-bike7601;msnemb-key381;msnemb-dp12161;$GPRMC,162213.000,A,3503.2435,N,08518.6543,W,1.59,186.12,170612,,,A*7E
user382;Super@234;msnemb-kiosk382;msnemb-bike7621;msnemb-key382;msnemb-dp12193;$GPRMC,162213.000,A,3503.2435,N,08518.6543,W,1.59,186.12,170612,,,A*7E
user383;Super@234;msnemb-kiosk383;msnemb-bike7641;msnemb-key383;msnemb-dp12225;$GPRMC,162213.000,A,3503.2435,N,08518.6543,W,1.59,186.12,170612,,,A*7E
user384;Super@234;msnemb-kiosk384;msnemb-bike7661;msnemb-key384;msnemb-dp12257;$GPRMC,162213.000,A,3503.2435,N,08518.6543,W,1.59,186.12,170612,,,A*7E
user385;Super@234;msnemb-kiosk385;msnemb-bike7681;msnemb-key385;msnemb-dp12289;$GPRMC,162213.000,A,3503.2435,N,08518.6543,W,1.59,186.12,170612,,,A*7E
user386;Super@234;msnemb-kiosk386;msnemb-bike7701;msnemb-key386;msnemb-dp12321;$GPRMC,162213.000,A,3503.2435,N,08518.6543,W,1.59,186.12,170612,,,A*7E
user387;Super@234;msnemb-kiosk387;msnemb-bike7721;msnemb-key387;msnemb-dp12353;$GPRMC,162213.000,A,3503.2435,N,08518.6543,W,1.59,186.12,170612,,,A*7E
user388;Super@234;msnemb-kiosk388;msnemb-bike7741;msnemb-key388;msnemb-dp12385;$GPRMC,162213.000,A,3503.2435,N,08518.6543,W,1.59,186.12,170612,,,A*7E
user389;Super@234;msnemb-kiosk389;msnemb-bike7761;msnemb-key389;msnemb-dp12417;$GPRMC,162213.000,A,3503.2435,N,08518.6543,W,1.59,186.12,170612,,,A*7E
user390;Super@234;msnemb-kiosk390;msnemb-bike7781;msnemb-key390;msnemb-dp12449;$GPRMC,162213.000,A,3503.2435,N,08518.6543,W,1.59,186.12,170612,,,A*7E
user391;Super@234;msnemb-kiosk391;msnemb-bike7801;msnemb-key391;msnemb-dp12481;$GPRMC,162213.000,A,3503.2435,N,08518.6543,W,1.59,186.12,170612,,,A*7E
user392;Super@234;msnemb-kiosk392;msnemb-bike7821;msnemb-key392;msnemb-dp12513;$GPRMC,162213.000,A,3503.2435,N,08518.6543,W,1.59,186.12,170612,,,A*7E
user393;Super@234;msnemb-kiosk393;msnemb-bike7841;msnemb-key393;msnemb-dp12545;$GPRMC,162213.000,A,3503.2435,N,08518.6543,W,1.59,186.12,170612,,,A*7E
user394;Super@234;msnemb-kiosk394;msnemb-bike7861;msnemb-key394;msnemb-dp12577;$GPRMC,162213.000,A,3503.2435,N,08518.6543,W,1.59,186.12,170612,,,A*7E
user395;Super@234;msnemb-kiosk395;msnemb-bike7881;msnemb-key395;msnemb-dp12609;$GPRMC,162213.000,A,3503.2435,N,08518.6543,W,1.59,186.12,170612,,,A*7E
user396;Super@234;msnemb-kiosk396;msnemb-bike7901;msnemb-key396;msnemb-dp12641;$GPRMC,162213.000,A,3503.2435,N,08518.6543,W,1.59,186.12,170612,,,A*7E
user397;Super@234;msnemb-kiosk397;msnemb-bike7921;msnemb-key397;msnemb-dp12673;$GPRMC,162213.000,A,3503.2435,N,08518.6543,W,1.59,186.12,170612,,,A*7E
user398;Super@234;msnemb-kiosk398;msnemb-bike7941;msnemb-key398;msnemb-dp12705;$GPRMC,162213.000,A,3503.2435,N,08518.6543,W,1.59,186.12,170612,,,A*7E
user399;Super@234;msnemb-kiosk399;msnemb-bike7961;msnemb-key399;msnemb-dp12737;$GPRMC,162213.000,A,3503.2435,N,08518.6543,W,1.59,186.12,170612,,,A*7E
user400;Super@234;msnemb-kiosk400;msnemb-bike7981;msnemb-key400;msnemb-dp12769;$GPRMC,162213.000,A,3503.2435,N,08518.6543,W,1.59,186.12,170612,,,A*7E
user401;Super@234;msnemb-kiosk401;msnemb-bike8001;msnemb-key401;msnemb-dp12801;$GPRMC,162213.000,A,3503.2435,N,08518.6543,W,1.59,186.12,170612,,,A*7E
user402;Super@234;msnemb-kiosk402;msnemb-bike8021;msnemb-key402;msnemb-dp12833;$GPRMC,162213.000,A,3503.2435,N,08518.6543,W,1.59,186.12,170612,,,A*7E
